{
"type": "FeatureCollection",
"name": "Amphitheatres_0",
"crs": { "type": "name", "properties": { "name": "urn:ogc:def:crs:OGC:1.3:CRS84" } },
"features": [
{ "type": "Feature", "properties": { "name": "Amphitheatre of Dyrrhachium", "city": "DurrÃ«s", "country": "Albania", "located": "yes", "visible": "yes" }, "geometry": { "type": "Point", "coordinates": [ 19.445042, 41.312178 ] } },
{ "type": "Feature", "properties": { "name": "Amphitheatre of Colonia Claudia Caesarea", "city": "Cherchelle", "country": "Algeria", "located": "yes", "visible": "yes" }, "geometry": { "type": "Point", "coordinates": [ 2.190425, 36.605364 ] } },
{ "type": "Feature", "properties": { "name": "Amphitheatre of Gemellae", "city": "M'lili", "country": "Algeria", "located": "yes", "visible": "yes" }, "geometry": { "type": "Point", "coordinates": [ 5.522703, 34.635453 ] } },
{ "type": "Feature", "properties": { "name": "Amphitheatre of Theveste", "city": "TÃƒÂ©bessa", "country": "Algeria", "located": "yes", "visible": "yes" }, "geometry": { "type": "Point", "coordinates": [ 8.123764, 35.401246 ] } },
{ "type": "Feature", "properties": { "name": "Amphitheatre of Carnuntum", "city": "Petronell", "country": "Austria", "located": "yes", "visible": "yes" }, "geometry": { "type": "Point", "coordinates": [ 16.850978, 48.109972 ] } },
{ "type": "Feature", "properties": { "name": "Military amphithteatre oc Carnuntum", "city": "Petronell", "country": "Austria", "located": "yes", "visible": "yes" }, "geometry": { "type": "Point", "coordinates": [ 16.8927, 48.1269 ] } },
{ "type": "Feature", "properties": { "name": "Amphitheatre of Slavia Solva", "city": "Wagna", "country": "Austria", "located": "yes", "visible": "yes" }, "geometry": { "type": "Point", "coordinates": [ 15.567417, 46.766744 ] } },
{ "type": "Feature", "properties": { "name": "Amphitheatre of Virunum", "city": "Magdalensberg", "country": "Austria", "located": "yes", "visible": "yes" }, "geometry": { "type": "Point", "coordinates": [ 14.366942, 46.69795 ] } },
{ "type": "Feature", "properties": { "name": "Amphitheatre of Diocletianopolis", "city": "Hisarya", "country": "Bulgaria", "located": "yes", "visible": "yes" }, "geometry": { "type": "Point", "coordinates": [ 24.703081, 42.500069 ] } },
{ "type": "Feature", "properties": { "name": "Amphitheatre of Marcianopolis", "city": "Devnya", "country": "Bulgari", "located": "yes", "visible": "yes" }, "geometry": { "type": "Point", "coordinates": [ 27.586139, 43.228814 ] } },
{ "type": "Feature", "properties": { "name": "Amphitheatre of Serdica", "city": "Sofia", "country": "Bulgaria", "located": "yes", "visible": "yes" }, "geometry": { "type": "Point", "coordinates": [ 23.328283, 42.697592 ] } },
{ "type": "Feature", "properties": { "name": "Amphitheatre of Paphus", "city": "Paphos", "country": "Cyprus", "located": "yes", "visible": "yes" }, "geometry": { "type": "Point", "coordinates": [ 32.4053, 34.754911 ] } },
{ "type": "Feature", "properties": { "name": "Amphitheatre of Salamis", "city": "Famagusta", "country": "Cyprus", "located": "yes", "visible": "no" }, "geometry": { "type": "Point", "coordinates": [ 33.90238, 35.185522 ] } },
{ "type": "Feature", "properties": { "name": "Amphitheatre of Burnum", "city": "Kistanje", "country": "Croatia", "located": "yes", "visible": "yes" }, "geometry": { "type": "Point", "coordinates": [ 16.018156, 44.019117 ] } },
{ "type": "Feature", "properties": { "name": "Amphitheatre of Pietas Iulia Pola", "city": "Pula", "country": "Croatia", "located": "yes", "visible": "yes" }, "geometry": { "type": "Point", "coordinates": [ 13.850197, 44.873222 ] } },
{ "type": "Feature", "properties": { "name": "Amphitheatre of Salonae", "city": "Solin", "country": "Croazia", "located": "yes", "visible": "yes" }, "geometry": { "type": "Point", "coordinates": [ 16.474256, 43.538456 ] } },
{ "type": "Feature", "properties": { "name": "Amphitheatre of Agendicum Senonum", "city": "Sens", "country": "France", "located": "no", "visible": "no" }, "geometry": { "type": "Point", "coordinates": [ 3.292997, 48.200036 ] } },
{ "type": "Feature", "properties": { "name": "Amphitheatre of Aginnum", "city": "Agen", "country": "France", "located": "no", "visible": "no" }, "geometry": { "type": "Point", "coordinates": [ 0.622147, 44.206547 ] } },
{ "type": "Feature", "properties": { "name": "Amphitheatre of Aquae Neri", "city": "NÃ©ris-les-Bains", "country": "France", "located": "no", "visible": "no" }, "geometry": { "type": "Point", "coordinates": [ 2.65818, 46.28986 ] } },
{ "type": "Feature", "properties": { "name": "Amphitheatre of Argentomagus", "city": "Argenton-sur-Creuse", "country": "France", "located": "yes", "visible": "no" }, "geometry": { "type": "Point", "coordinates": [ 1.51875, 46.601533 ] } },
{ "type": "Feature", "properties": { "name": "Amphitheatre of Augustomagus Silvanectum", "city": "Senlis", "country": "France", "located": "yes", "visible": "yes" }, "geometry": { "type": "Point", "coordinates": [ 2.575403, 49.205167 ] } },
{ "type": "Feature", "properties": { "name": "Amphitheatre of Augustoritum Llemovicum", "city": "Limoges", "country": "France", "located": "yes", "visible": "no" }, "geometry": { "type": "Point", "coordinates": [ 1.251743, 45.830446 ] } },
{ "type": "Feature", "properties": { "name": "Amphitheatre of Avaricum Biturigum", "city": "Bourges", "country": "France", "located": "no", "visible": "no" }, "geometry": { "type": "Point", "coordinates": [ 2.39087, 47.0845 ] } },
{ "type": "Feature", "properties": { "name": "Amphitheatre of Baeterrae Septimanorum", "city": "BÃ©ziers", "country": "France", "located": "yes", "visible": "no" }, "geometry": { "type": "Point", "coordinates": [ 3.2141, 43.3396 ] } },
{ "type": "Feature", "properties": { "name": "Amphitheatre of Bellus Mons", "city": "Beaumont-sur-Oise", "country": "France", "located": "yes", "visible": "yes" }, "geometry": { "type": "Point", "coordinates": [ 2.296752, 49.14621 ] } },
{ "type": "Feature", "properties": { "name": "Amphitheatre of Caesarodunum Turonum", "city": "Tours", "country": "France", "located": "no", "visible": "no" }, "geometry": { "type": "Point", "coordinates": [ 0.696394, 47.3953 ] } },
{ "type": "Feature", "properties": { "name": "Amphitheatre of Carantomagus", "city": "Montbouy", "country": "France", "located": "yes", "visible": "yes" }, "geometry": { "type": "Point", "coordinates": [ 2.819046, 47.872894 ] } },
{ "type": "Feature", "properties": { "name": "Amphitheatre of Cassinomagus", "city": "Chassenon", "country": "France", "located": "yes", "visible": "no" }, "geometry": { "type": "Point", "coordinates": [ 0.76899, 45.850565 ] } },
{ "type": "Feature", "properties": { "name": "Amphitheatre of Derventum", "city": "Drevant", "country": "France", "located": "yes", "visible": "yes" }, "geometry": { "type": "Point", "coordinates": [ 2.522388, 46.693051 ] } },
{ "type": "Feature", "properties": { "name": "Amphitheatre of Grannus", "city": "Grand", "country": "France", "located": "yes", "visible": "yes" }, "geometry": { "type": "Point", "coordinates": [ 5.491047, 48.385268 ] } },
{ "type": "Feature", "properties": { "name": "Amphitheatre of Iuliobona", "city": "Lillebonne", "country": "France", "located": "yes", "visible": "yes" }, "geometry": { "type": "Point", "coordinates": [ 0.536603, 49.517815 ] } },
{ "type": "Feature", "properties": { "name": "Amphitheatre of Limonum Pictonum", "city": "Poitiers", "country": "France", "located": "no", "visible": "no" }, "geometry": { "type": "Point", "coordinates": [ 0.33965, 46.5781 ] } },
{ "type": "Feature", "properties": { "name": "Amphitheatre of Nemausus", "city": "NÃƒÂ®mes", "country": "France", "located": "yes", "visible": "yes" }, "geometry": { "type": "Point", "coordinates": [ 4.359625, 43.834881 ] } },
{ "type": "Feature", "properties": { "name": "Amphitheatre of Segodunum", "city": "Rodez", "country": "France", "located": "no", "visible": "np" }, "geometry": { "type": "Point", "coordinates": [ 2.571003, 44.353622 ] } },
{ "type": "Feature", "properties": { "name": "Amphitheatre of Tolosa", "city": "Toulouse", "country": "France", "located": "yes", "visible": "yes" }, "geometry": { "type": "Point", "coordinates": [ 1.397841, 43.61478 ] } },
{ "type": "Feature", "properties": { "name": "Amphitheatre of Vesontio", "city": "BesanÃƒÂ§on", "country": "France", "located": "yes", "visible": "yes" }, "geometry": { "type": "Point", "coordinates": [ 6.015977, 47.239279 ] } },
{ "type": "Feature", "properties": { "name": "Amphitheatre of Vesuna Petrucorriorum", "city": "Perigueux", "country": "France", "located": "yes", "visible": "yes" }, "geometry": { "type": "Point", "coordinates": [ 0.713156, 45.182636 ] } },
{ "type": "Feature", "properties": { "name": "Amphitheatre of Augusta Treverorum", "city": "Trier", "country": "Germany", "located": "yes", "visible": "yes" }, "geometry": { "type": "Point", "coordinates": [ 6.649105, 49.748019 ] } },
{ "type": "Feature", "properties": { "name": "Amphitheatre of Castra Vetera", "city": "Xanten", "country": "Germany", "located": "yes", "visible": "yes" }, "geometry": { "type": "Point", "coordinates": [ 6.4729, 51.637517 ] } },
{ "type": "Feature", "properties": { "name": "Amphitheatre of Colonia Ulpia Traiana", "city": "Xanten", "country": "Germany", "located": "yes", "visible": "yes" }, "geometry": { "type": "Point", "coordinates": [ 6.451251, 51.6672 ] } },
{ "type": "Feature", "properties": { "name": "Amphitheatre of Quintana", "city": "KÃƒÂ¼nzing", "country": "Germany", "located": "yes", "visible": "yes" }, "geometry": { "type": "Point", "coordinates": [ 13.08283, 48.66705 ] } },
{ "type": "Feature", "properties": { "name": "Amphitheatre of Corinthus", "city": "Corinth", "country": "Greece", "located": "yes", "visible": "yes" }, "geometry": { "type": "Point", "coordinates": [ 22.892078, 37.909824 ] } },
{ "type": "Feature", "properties": { "name": "Amphitheatre of Gortyna", "city": "Gortyn", "country": "Greece", "located": "yes", "visible": "no" }, "geometry": { "type": "Point", "coordinates": [ 24.958405, 35.058004 ] } },
{ "type": "Feature", "properties": { "name": "Amphitheatre of Caesarea Maritima", "city": "Caesarea", "country": "Israel", "located": "yes", "visible": "yes" }, "geometry": { "type": "Point", "coordinates": [ 34.897378, 32.506568 ] } },
{ "type": "Feature", "properties": { "name": "Amphitheatre of Eleutheropolis", "city": "Beit Guvrin", "country": "Israel", "located": "yes", "visible": "yes" }, "geometry": { "type": "Point", "coordinates": [ 34.8939, 31.6082 ] } },
{ "type": "Feature", "properties": { "name": "Amphitheatre of Scythopolis", "city": "Bet She'an", "country": "Israel", "located": "yes", "visible": "yes" }, "geometry": { "type": "Point", "coordinates": [ 35.501446, 32.498508 ] } },
{ "type": "Feature", "properties": { "name": "Amphitheatre of Abella", "city": "Avella", "country": "italy", "located": "yes", "visible": "yes" }, "geometry": { "type": "Point", "coordinates": [ 14.608316, 40.961454 ] } },
{ "type": "Feature", "properties": { "name": "Amphitheatre of Alba Fucens", "city": "Massa d'Albe", "country": "Italy", "located": "yes", "visible": "yes" }, "geometry": { "type": "Point", "coordinates": [ 13.4123, 42.0772 ] } },
{ "type": "Feature", "properties": { "name": "Amphitheatre of Albingaunum", "city": "Albenga", "country": "Italy", "located": "yes", "visible": "yes" }, "geometry": { "type": "Point", "coordinates": [ 8.211315, 44.043859 ] } },
{ "type": "Feature", "properties": { "name": "Amphitheatre of Alliphae", "city": "Alife", "country": "Italy", "located": "yes", "visible": "yes" }, "geometry": { "type": "Point", "coordinates": [ 14.334989, 41.325586 ] } },
{ "type": "Feature", "properties": { "name": "Amphitheatre of Altinum", "city": "Quarto d' Altino", "country": "Italy", "located": "yes", "visible": "no" }, "geometry": { "type": "Point", "coordinates": [ 12.4001, 45.5492 ] } },
{ "type": "Feature", "properties": { "name": "Amphitheatre of Amiternum", "city": "L'Aquila", "country": "Italy", "located": "yes", "visible": "yes" }, "geometry": { "type": "Point", "coordinates": [ 13.306014, 42.400513 ] } },
{ "type": "Feature", "properties": { "name": "Amphitheatre of Ancona", "city": "Ancona", "country": "Italy", "located": "yes", "visible": "yes" }, "geometry": { "type": "Point", "coordinates": [ 13.5119, 43.6246 ] } },
{ "type": "Feature", "properties": { "name": "Amphitheatre of Aquileia", "city": "Aquileia", "country": "Italy", "located": "yes", "visible": "yes" }, "geometry": { "type": "Point", "coordinates": [ 13.365975, 45.768486 ] } },
{ "type": "Feature", "properties": { "name": "Amphitheatre of Aquinum", "city": "Aquino", "country": "Italy", "located": "yes", "visible": "yes" }, "geometry": { "type": "Point", "coordinates": [ 13.687767, 41.495447 ] } },
{ "type": "Feature", "properties": { "name": "Amphitheatre of Arimium", "city": "Rimini", "country": "Italy", "located": "yes", "visible": "yes" }, "geometry": { "type": "Point", "coordinates": [ 12.574804, 44.059939 ] } },
{ "type": "Feature", "properties": { "name": "Amphitheatre of Arretium", "city": "Arezzo", "country": "Italy", "located": "yes", "visible": "yes" }, "geometry": { "type": "Point", "coordinates": [ 11.880326, 43.46057 ] } },
{ "type": "Feature", "properties": { "name": "Amphitheatre of Asisium", "city": "Assisi", "country": "Italy", "located": "yes", "visible": "yes" }, "geometry": { "type": "Point", "coordinates": [ 12.62027, 43.071079 ] } },
{ "type": "Feature", "properties": { "name": "Amphitheatre of Augusta Bagiennorum", "city": "Bene Vagienna", "country": "Italy", "located": "yes", "visible": "yes" }, "geometry": { "type": "Point", "coordinates": [ 7.850286, 44.556583 ] } },
{ "type": "Feature", "properties": { "name": "Amphitheatre of Augusta Praetoria Salassorum", "city": "Aosta", "country": "Italy", "located": "yes", "visible": "yes" }, "geometry": { "type": "Point", "coordinates": [ 7.321797, 45.739603 ] } },
{ "type": "Feature", "properties": { "name": "Amphitheatre of Ausculum", "city": "Ascoli Piceno", "country": "Italy", "located": "yes", "visible": "no" }, "geometry": { "type": "Point", "coordinates": [ 13.570603, 42.855664 ] } },
{ "type": "Feature", "properties": { "name": "Amphitheatre of Benevemtum", "city": "Benevento", "country": "Italy", "located": "yes", "visible": "yes" }, "geometry": { "type": "Point", "coordinates": [ 14.76764, 41.132266 ] } },
{ "type": "Feature", "properties": { "name": "Amphitheatre of Caralis", "city": "Cagliari", "country": "Italy", "located": "yes", "visible": "yes" }, "geometry": { "type": "Point", "coordinates": [ 9.113216, 39.223914 ] } },
{ "type": "Feature", "properties": { "name": "Amphitheatre of Cales", "city": "Calvi Risorta", "country": "Italy", "located": "no", "visible": "no" }, "geometry": { "type": "Point", "coordinates": [ 14.137759, 41.201408 ] } },
{ "type": "Feature", "properties": { "name": "Amphitheatre of Canusium", "city": "Canosa di Puglia", "country": "Italy", "located": "no", "visible": "no" }, "geometry": { "type": "Point", "coordinates": [ 16.055383, 41.223125 ] } },
{ "type": "Feature", "properties": { "name": "Amphitheatre of Capua", "city": "Santa Maria Capua Vetere", "country": "Italy", "located": "yes", "visible": "yes" }, "geometry": { "type": "Point", "coordinates": [ 14.250105, 41.085931 ] } },
{ "type": "Feature", "properties": { "name": "Amphitheatre of Carsulae", "city": "San Gemini", "country": "Italy", "located": "yes", "visible": "yes" }, "geometry": { "type": "Point", "coordinates": [ 12.5591, 42.6395 ] } },
{ "type": "Feature", "properties": { "name": "Amphitheatre of Casinum", "city": "Cassino", "country": "Italy", "located": "yes", "visible": "yes" }, "geometry": { "type": "Point", "coordinates": [ 13.823544, 41.482732 ] } },
{ "type": "Feature", "properties": { "name": "Amphitheatre of Castra Albana", "city": "Albano Laziae", "country": "Italy", "located": "yes", "visible": "yes" }, "geometry": { "type": "Point", "coordinates": [ 12.664948, 41.73272 ] } },
{ "type": "Feature", "properties": { "name": "Amphitheatre of Catina", "city": "Catania", "country": "Italy", "located": "yes", "visible": "yes" }, "geometry": { "type": "Point", "coordinates": [ 15.085354, 37.507335 ] } },
{ "type": "Feature", "properties": { "name": "Amphitheatre of Civitas Camunnorum", "city": "Cividate Camuno", "country": "Italy", "located": "yes", "visible": "yes" }, "geometry": { "type": "Point", "coordinates": [ 10.281, 45.9435 ] } },
{ "type": "Feature", "properties": { "name": "Amphitheatre of Cuma", "city": "Pozzuoli", "country": "Italy", "located": "yes", "visible": "yes" }, "geometry": { "type": "Point", "coordinates": [ 14.055903, 40.841929 ] } },
{ "type": "Feature", "properties": { "name": "Amphitheatre of Egnatia", "city": "Fasano", "country": "Italy", "located": "yes", "visible": "yes" }, "geometry": { "type": "Point", "coordinates": [ 17.391142, 40.887869 ] } },
{ "type": "Feature", "properties": { "name": "Amphitheatre of Eporedia", "city": "Ivrea", "country": "Italy", "located": "yes", "visible": "yes" }, "geometry": { "type": "Point", "coordinates": [ 7.887719, 45.467758 ] } },
{ "type": "Feature", "properties": { "name": "Amphitheatre of Fabrateria Nova", "city": "San Giovanni Invarico", "country": "Italy", "located": "yes", "visible": "yes" }, "geometry": { "type": "Point", "coordinates": [ 13.552995, 41.518807 ] } },
{ "type": "Feature", "properties": { "name": "Amphitheatre of Falerio Picenus", "city": "Falerone", "country": "Italy", "located": "yes", "visible": "yes" }, "geometry": { "type": "Point", "coordinates": [ 13.49633, 43.10148 ] } },
{ "type": "Feature", "properties": { "name": "Amphitheatre of Falerii Novi", "city": "Civita Castellana", "country": "Italy", "located": "ues", "visible": "no" }, "geometry": { "type": "Point", "coordinates": [ 12.360894, 42.302694 ] } },
{ "type": "Feature", "properties": { "name": "Amphitheatre of Fanum Fortunae", "city": "Fano", "country": "Italy", "located": "yes", "visible": "yes" }, "geometry": { "type": "Point", "coordinates": [ 13.013969, 43.845478 ] } },
{ "type": "Feature", "properties": { "name": "Amphitheatre of Florentia", "city": "Florence", "country": "Italy", "located": "yes", "visible": "no" }, "geometry": { "type": "Point", "coordinates": [ 11.259521, 43.769228 ] } },
{ "type": "Feature", "properties": { "name": "Amphitheatre of Formiae", "city": "Formia", "country": "Italy", "located": "yes", "visible": "yes" }, "geometry": { "type": "Point", "coordinates": [ 13.607231, 41.258278 ] } },
{ "type": "Feature", "properties": { "name": "Amphitheatre of Forum Cornelii", "city": "Imola", "country": "Italy", "located": "yes", "visible": "no" }, "geometry": { "type": "Point", "coordinates": [ 11.704981, 44.357803 ] } },
{ "type": "Feature", "properties": { "name": "Amphitheatre of Forum Novum", "city": "Selci", "country": "Italy", "located": "no", "visible": "no" }, "geometry": { "type": "Point", "coordinates": [ 12.603703, 42.331253 ] } },
{ "type": "Feature", "properties": { "name": "Amphitheatre of Frusino", "city": "Frosinone", "country": "Italy", "located": "yes", "visible": "yes" }, "geometry": { "type": "Point", "coordinates": [ 13.351964, 41.645486 ] } },
{ "type": "Feature", "properties": { "name": "Amphitheatre of Fundi", "city": "Fondi", "country": "Italy", "located": "no", "visible": "no" }, "geometry": { "type": "Point", "coordinates": [ 13.425342, 41.358114 ] } },
{ "type": "Feature", "properties": { "name": "Amphitheatre of Genua", "city": "Genoa", "country": "Italy", "located": "yes", "visible": "yes" }, "geometry": { "type": "Point", "coordinates": [ 8.932528, 44.406164 ] } },
{ "type": "Feature", "properties": { "name": "Amphitheatre of Grumentum", "city": "Grumento Nova", "country": "Italy", "located": "yes", "visible": "yes" }, "geometry": { "type": "Point", "coordinates": [ 15.91155, 40.28732 ] } },
{ "type": "Feature", "properties": { "name": "Amphitheatre of Hasta", "city": "Asti", "country": "Italy", "located": "yes", "visible": "yes" }, "geometry": { "type": "Point", "coordinates": [ 8.204494, 44.901767 ] } },
{ "type": "Feature", "properties": { "name": "Amphitheatre of Herdonia", "city": "Ordona", "country": "Italy", "located": "yes", "visible": "yes" }, "geometry": { "type": "Point", "coordinates": [ 15.6231, 41.3105 ] } },
{ "type": "Feature", "properties": { "name": "Amphitheatre of Himera", "city": "Termini Imerese", "country": "Italy", "located": "yes", "visible": "yes" }, "geometry": { "type": "Point", "coordinates": [ 13.693653, 37.987294 ] } },
{ "type": "Feature", "properties": { "name": "Amphitheatre of Hispellum", "city": "Spello", "country": "Italy", "located": "yes", "visible": "yes" }, "geometry": { "type": "Point", "coordinates": [ 12.665265, 42.995938 ] } },
{ "type": "Feature", "properties": { "name": "Amphitheatre of Histonium", "city": "Vasto", "country": "Italy", "located": "yes", "visible": "no" }, "geometry": { "type": "Point", "coordinates": [ 14.707821, 42.111279 ] } },
{ "type": "Feature", "properties": { "name": "Amphitheatre of Interamna Nahars", "city": "Terni", "country": "Italy", "located": "yes", "visible": "yes" }, "geometry": { "type": "Point", "coordinates": [ 12.6433, 42.5598 ] } },
{ "type": "Feature", "properties": { "name": "Amphitheatre of Interamnia Praetutiana", "city": "Teramo", "country": "Italy", "located": "yes", "visible": "yes" }, "geometry": { "type": "Point", "coordinates": [ 13.703109, 42.658115 ] } },
{ "type": "Feature", "properties": { "name": "Amphitheatre of Lanuvium", "city": "Lanuvio", "country": "Italy", "located": "yes", "visible": "no" }, "geometry": { "type": "Point", "coordinates": [ 12.7, 41.68333 ] } },
{ "type": "Feature", "properties": { "name": "Amphitheatre of Larinum", "city": "Larino", "country": "Italy", "located": "yes", "visible": "yes" }, "geometry": { "type": "Point", "coordinates": [ 14.916364, 41.805529 ] } },
{ "type": "Feature", "properties": { "name": "Amphitheatre of Larinum", "city": "Larino", "country": "Italy", "located": "yes", "visible": "yes" }, "geometry": { "type": "Point", "coordinates": [ 8.867859, 44.705942 ] } },
{ "type": "Feature", "properties": { "name": "Amphitheatre of Lucca", "city": "Lucca", "country": "Italy", "located": "yes", "visible": "no" }, "geometry": { "type": "Point", "coordinates": [ 10.506166, 43.84532 ] } },
{ "type": "Feature", "properties": { "name": "Amphitheatre of Luceria", "city": "Lucera", "country": "Italy", "located": "yes", "visible": "yes" }, "geometry": { "type": "Point", "coordinates": [ 15.3449, 41.5083 ] } },
{ "type": "Feature", "properties": { "name": "Amphitheatre of Lucus Feroniae", "city": "Capena", "country": "Italy", "located": "Yes", "visible": "yes" }, "geometry": { "type": "Point", "coordinates": [ 12.594746, 42.129874 ] } },
{ "type": "Feature", "properties": { "name": "Amphitheatre of Luna", "city": "Luni", "country": "Italy", "located": "yes", "visible": "yes" }, "geometry": { "type": "Point", "coordinates": [ 10.022085, 44.062573 ] } },
{ "type": "Feature", "properties": { "name": "Amphitheatre of Lupiae", "city": "Lecce", "country": "Italy", "located": "yes", "visible": "yes" }, "geometry": { "type": "Point", "coordinates": [ 18.172575, 40.352428 ] } },
{ "type": "Feature", "properties": { "name": "Amphitheatre of Marruvium", "city": "San Benedetto dei Marsi", "country": "Italy", "located": "yes", "visible": "yes" }, "geometry": { "type": "Point", "coordinates": [ 13.6276, 42.0065 ] } },
{ "type": "Feature", "properties": { "name": "Amphitheatre of Mediolanum", "city": "Milan", "country": "Italy", "located": "yes", "visible": "yes" }, "geometry": { "type": "Point", "coordinates": [ 9.178663, 45.457026 ] } },
{ "type": "Feature", "properties": { "name": "Amphitheatre of Mevania", "city": "Bevagna", "country": "Italy", "located": "yes", "visible": "no" }, "geometry": { "type": "Point", "coordinates": [ 12.61535, 42.936912 ] } },
{ "type": "Feature", "properties": { "name": "Amphitheatre of Minturnae", "city": "Minturno", "country": "Italy", "located": "no", "visible": "no" }, "geometry": { "type": "Point", "coordinates": [ 13.763821, 41.241693 ] } },
{ "type": "Feature", "properties": { "name": "Amphitheatre of Mutina", "city": "Modena", "country": "Italy", "located": "no", "visible": "no" }, "geometry": { "type": "Point", "coordinates": [ 10.926367, 44.644658 ] } },
{ "type": "Feature", "properties": { "name": "Amphitheatre of Neapolis", "city": "Naples", "country": "Italy", "located": "yes", "visible": "no" }, "geometry": { "type": "Point", "coordinates": [ 14.255578, 40.851831 ] } },
{ "type": "Feature", "properties": { "name": "Amphitheatre of Nora", "city": "Pula", "country": "Italy", "located": "no", "visible": "no" }, "geometry": { "type": "Point", "coordinates": [ 9.014822, 38.985636 ] } },
{ "type": "Feature", "properties": { "name": "Amphitheatre of Nola", "city": "Nola", "country": "Italy", "located": "yes", "visible": "yes" }, "geometry": { "type": "Point", "coordinates": [ 14.520553, 40.927703 ] } },
{ "type": "Feature", "properties": { "name": "Amphitheatre of Nuceria Alfaterna", "city": "Nocera Inferiore", "country": "Italy", "located": "yes", "visible": "yes" }, "geometry": { "type": "Point", "coordinates": [ 14.65715, 40.745486 ] } },
{ "type": "Feature", "properties": { "name": "Amphitheatre of Ocriculum", "city": "Otricoli", "country": "Italy", "located": "yes", "visible": "yes" }, "geometry": { "type": "Point", "coordinates": [ 12.466898, 42.411882 ] } },
{ "type": "Feature", "properties": { "name": "Amphitheatre of Paestum", "city": "Capaccio", "country": "Italy", "located": "yes", "visible": "yes" }, "geometry": { "type": "Point", "coordinates": [ 15.006339, 40.422364 ] } },
{ "type": "Feature", "properties": { "name": "Amphitheatre of Patavium", "city": "Padova", "country": "Italy", "located": "yes", "visible": "yes" }, "geometry": { "type": "Point", "coordinates": [ 11.879132, 45.41163 ] } },
{ "type": "Feature", "properties": { "name": "Amphitheatre of Pollentia", "city": "Pollenzo", "country": "Italy", "located": "yes", "visible": "yes" }, "geometry": { "type": "Point", "coordinates": [ 7.895866, 44.684739 ] } },
{ "type": "Feature", "properties": { "name": "Amphitheatre of Pompeii", "city": "Pompei", "country": "Italy", "located": "yes", "visible": "yes" }, "geometry": { "type": "Point", "coordinates": [ 14.49497, 40.751264 ] } },
{ "type": "Feature", "properties": { "name": "Amphitheatre of Portus", "city": "Fiumicino", "country": "Italy", "located": "yes", "visible": "yes" }, "geometry": { "type": "Point", "coordinates": [ 12.258556, 41.781622 ] } },
{ "type": "Feature", "properties": { "name": "Amphitheatre of Puteoli", "city": "Pozzuoli", "country": "Italy", "located": "yes", "visible": "yes" }, "geometry": { "type": "Point", "coordinates": [ 14.125313, 40.825919 ] } },
{ "type": "Feature", "properties": { "name": "Flavian Amphitheatre", "city": "Rome", "country": "Italy", "located": "yes", "visible": "yes" }, "geometry": { "type": "Point", "coordinates": [ 12.492395, 41.890177 ] } },
{ "type": "Feature", "properties": { "name": "Amphitheatrum Castrense", "city": "Rome", "country": "Italy", "located": "yes", "visible": "yes" }, "geometry": { "type": "Point", "coordinates": [ 12.515047, 41.887569 ] } },
{ "type": "Feature", "properties": { "name": "Amphitheatre of Rudiae", "city": "Lecce", "country": "Italy", "located": "Yes", "visible": "yes" }, "geometry": { "type": "Point", "coordinates": [ 18.146789, 40.334278 ] } },
{ "type": "Feature", "properties": { "name": "Amphitheatre of Rusellae", "city": "Roselle", "country": "Italy", "located": "yes", "visible": "yes" }, "geometry": { "type": "Point", "coordinates": [ 11.15921, 42.828364 ] } },
{ "type": "Feature", "properties": { "name": "Amphitheatre of Scolacium", "city": "Catanzaro Lido", "country": "Italy", "located": "yes", "visible": "yes" }, "geometry": { "type": "Point", "coordinates": [ 16.592275, 38.806844 ] } },
{ "type": "Feature", "properties": { "name": "Amphitheatre of Segusium", "city": "Susa", "country": "Italy", "located": "yes", "visible": "yes" }, "geometry": { "type": "Point", "coordinates": [ 7.045136, 45.133356 ] } },
{ "type": "Feature", "properties": { "name": "Amphitheatre of Sipontum", "city": "Manfredonia", "country": "Italy", "located": "yes", "visible": "yes" }, "geometry": { "type": "Point", "coordinates": [ 15.88865, 41.611703 ] } },
{ "type": "Feature", "properties": { "name": "Amphitheatrum of Spoletium", "city": "Spoleto", "country": "Italy", "located": "yes", "visible": "yes" }, "geometry": { "type": "Point", "coordinates": [ 12.739059, 42.738489 ] } },
{ "type": "Feature", "properties": { "name": "Amphitheatre of Suasa", "city": "Castellone di Suasa", "country": "Italy", "located": "yes", "visible": "yes" }, "geometry": { "type": "Point", "coordinates": [ 12.9867, 43.6247 ] } },
{ "type": "Feature", "properties": { "name": "Amphitheatre of Sulcis", "city": "Sant' Antioco", "country": "Italy", "located": "yes", "visible": "yes" }, "geometry": { "type": "Point", "coordinates": [ 8.451614, 39.071194 ] } },
{ "type": "Feature", "properties": { "name": "Amphitheatre of Sutrium", "city": "Sutri", "country": "Italy", "located": "yes", "visible": "yes" }, "geometry": { "type": "Point", "coordinates": [ 12.228974, 42.239028 ] } },
{ "type": "Feature", "properties": { "name": "Amphitheatre of Syracusae", "city": "Siracusa", "country": "Italy", "located": "yes", "visible": "yes" }, "geometry": { "type": "Point", "coordinates": [ 15.278904, 37.074178 ] } },
{ "type": "Feature", "properties": { "name": "Amphitheatre of Tarentum", "city": "Taranto", "country": "Italy", "located": "yes", "visible": "no" }, "geometry": { "type": "Point", "coordinates": [ 17.240828, 40.470397 ] } },
{ "type": "Feature", "properties": { "name": "Amphitheatre of Terracina", "city": "terracina", "country": "Italy", "located": "yes", "visible": "yes" }, "geometry": { "type": "Point", "coordinates": [ 13.247014, 41.289072 ] } },
{ "type": "Feature", "properties": { "name": "Amphitheatre of Teatae", "city": "Chieti", "country": "Italy", "located": "yes", "visible": "yes" }, "geometry": { "type": "Point", "coordinates": [ 14.162512, 42.345175 ] } },
{ "type": "Feature", "properties": { "name": "Amphitheatre of Telesia", "city": "San Salvatore Telesino", "country": "Italy", "located": "yes", "visible": "yes" }, "geometry": { "type": "Point", "coordinates": [ 14.500506, 41.223842 ] } },
{ "type": "Feature", "properties": { "name": "Amphitheatre of Tibur", "city": "Tivoli", "country": "Italy", "located": "yes", "visible": "yes" }, "geometry": { "type": "Point", "coordinates": [ 12.798095, 41.960705 ] } },
{ "type": "Feature", "properties": { "name": "Amphitheatre of Trebula Mutuesca", "city": "Monteleone Sabino", "country": "Italy", "located": "yes", "visible": "yes" }, "geometry": { "type": "Point", "coordinates": [ 12.867593, 42.22848 ] } },
{ "type": "Feature", "properties": { "name": "Amphitheatre of Tridentum", "city": "Trento", "country": "Italy", "located": "yes", "visible": "no" }, "geometry": { "type": "Point", "coordinates": [ 11.125039, 46.069186 ] } },
{ "type": "Feature", "properties": { "name": "Amphitheatre of Tusculum", "city": "Grottaferrata", "country": "Italy", "located": "yes", "visible": "yes" }, "geometry": { "type": "Point", "coordinates": [ 12.703708, 41.795267 ] } },
{ "type": "Feature", "properties": { "name": "Amphitheatre if Tuder", "city": "Todi", "country": "Italy", "located": "yes", "visible": "yes" }, "geometry": { "type": "Point", "coordinates": [ 12.413282, 42.778637 ] } },
{ "type": "Feature", "properties": { "name": "Amphitheatre of Urbs Salvia", "city": "Urbisaglia", "country": "Italy", "located": "yes", "visible": "yes" }, "geometry": { "type": "Point", "coordinates": [ 13.3872, 43.2009 ] } },
{ "type": "Feature", "properties": { "name": "Amphitheatre of Veleia", "city": "Lugagnano Val d' Arda", "country": "Italy", "located": "yes", "visible": "yes" }, "geometry": { "type": "Point", "coordinates": [ 9.723475, 44.785053 ] } },
{ "type": "Feature", "properties": { "name": "Amphitheatre of Venafrum", "city": "Venafro", "country": "Italy", "located": "yes", "visible": "yes" }, "geometry": { "type": "Point", "coordinates": [ 14.046255, 41.48271 ] } },
{ "type": "Feature", "properties": { "name": "Amphitheatre of Venusia", "city": "Venosa", "country": "Italy", "located": "yes", "visible": "yes" }, "geometry": { "type": "Point", "coordinates": [ 15.82638, 40.969681 ] } },
{ "type": "Feature", "properties": { "name": "Verona Arena", "city": "Verona", "country": "Italy", "located": "yes", "visible": "yes" }, "geometry": { "type": "Point", "coordinates": [ 10.9944, 45.439006 ] } },
{ "type": "Feature", "properties": { "name": "Amphitheatre of Vola", "city": "Zagarolo", "country": "Italy", "located": "yes", "visible": "yes" }, "geometry": { "type": "Point", "coordinates": [ 12.819272, 41.858487 ] } },
{ "type": "Feature", "properties": { "name": "Amphitheatre of Volsinii Novi", "city": "Bolsena", "country": "Italy", "located": "yes", "visible": "yes" }, "geometry": { "type": "Point", "coordinates": [ 11.990112, 42.650256 ] } },
{ "type": "Feature", "properties": { "name": "Amphitheatre of Botrus", "city": "Batrun", "country": "Lebanon", "located": "no", "visible": "no" }, "geometry": { "type": "Point", "coordinates": [ 35.660419, 34.253315 ] } },
{ "type": "Feature", "properties": { "name": "Amphitheatre of Leptis Magna", "city": "Lebda", "country": "Libya", "located": "yes", "visible": "yes" }, "geometry": { "type": "Point", "coordinates": [ 14.309281, 32.632251 ] } },
{ "type": "Feature", "properties": { "name": "Amphitheatre of Ptolemais", "city": "Tolmeita", "country": "Libya", "located": "yes", "visible": "yes" }, "geometry": { "type": "Point", "coordinates": [ 20.945587, 32.707946 ] } },
{ "type": "Feature", "properties": { "name": "Amphitheatre of Sabratha", "city": "Sabratha", "country": "Libya", "located": "yes", "visible": "yes" }, "geometry": { "type": "Point", "coordinates": [ 12.494008, 32.803934 ] } },
{ "type": "Feature", "properties": { "name": "Amphitheatre of Rutupiae", "city": "Richborough", "country": "England", "located": "yes", "visible": "yes" }, "geometry": { "type": "Point", "coordinates": [ 1.326534, 51.290171 ] } },
{ "type": "Feature", "properties": { "name": "Amphitheatre of Venta Icenorum", "city": "Caistor St. Edmund", "country": "England", "located": "no", "visible": "no" }, "geometry": { "type": "Point", "coordinates": [ 1.288262, 52.579979 ] } },
{ "type": "Feature", "properties": { "name": "Amphitheatre of Micia", "city": "Vetel", "country": "Romania", "located": "yes", "visible": "no" }, "geometry": { "type": "Point", "coordinates": [ 22.817234, 45.914951 ] } },
{ "type": "Feature", "properties": { "name": "Amphitheatre of Porolissum", "city": "Mir?id", "country": "Romania", "located": "yes", "visible": "yes" }, "geometry": { "type": "Point", "coordinates": [ 23.154054, 47.177632 ] } },
{ "type": "Feature", "properties": { "name": "Amphitheatre of Ulpia Traiana Sarmizegetusa", "city": "Sarmizegetusa", "country": "Romania", "located": "yes", "visible": "yes" }, "geometry": { "type": "Point", "coordinates": [ 22.785838, 45.516751 ] } },
{ "type": "Feature", "properties": { "name": "Amphitheatre of Dura Europos", "city": "Salhiyah", "country": "Syria", "located": "yes", "visible": "yes" }, "geometry": { "type": "Point", "coordinates": [ 40.728926, 34.749855 ] } },
{ "type": "Feature", "properties": { "name": "Amphithatre of Emporiae", "city": "L'Escala", "country": "Spain", "located": "yes", "visible": "yes" }, "geometry": { "type": "Point", "coordinates": [ 3.11741, 42.1301 ] } },
{ "type": "Feature", "properties": { "name": "Amphitheatre of Tarraco", "city": "Tarragona", "country": "Spain", "located": "yes", "visible": "yes" }, "geometry": { "type": "Point", "coordinates": [ 1.258817, 41.114547 ] } },
{ "type": "Feature", "properties": { "name": "Amphitheatre of Augusta Raurica", "city": "Augst", "country": "Switzerland", "located": "yes", "visible": "yes" }, "geometry": { "type": "Point", "coordinates": [ 7.720602, 47.529313 ] } },
{ "type": "Feature", "properties": { "name": "Amphitheatre of Aventicum", "city": "Avenches", "country": "Switzerland", "located": "yes", "visible": "ye" }, "geometry": { "type": "Point", "coordinates": [ 7.042657, 46.881003 ] } },
{ "type": "Feature", "properties": { "name": "Amphitheatre of Bern", "city": "Bern", "country": "Switzerland", "located": "yes", "visible": "yes" }, "geometry": { "type": "Point", "coordinates": [ 7.45113, 46.975758 ] } },
{ "type": "Feature", "properties": { "name": "Amphitheatre of Colonia Iulia Equestris", "city": "Nyon", "country": "Switzerland", "located": "yes", "visible": "yes" }, "geometry": { "type": "Point", "coordinates": [ 6.241263, 46.383451 ] } },
{ "type": "Feature", "properties": { "name": "Amphitheatre of Octodurum", "city": "Martigny", "country": "Switzerland", "located": "yes", "visible": "yes" }, "geometry": { "type": "Point", "coordinates": [ 7.07346, 46.094365 ] } },
{ "type": "Feature", "properties": { "name": "Amphitheatre of Vindonissa", "city": "Windisch", "country": "Switzerland", "located": "yes", "visible": "yes" }, "geometry": { "type": "Point", "coordinates": [ 8.213603, 47.476249 ] } },
{ "type": "Feature", "properties": { "name": "Amphitheatre of Acholla", "city": "Chebba", "country": "Tunisia", "located": "yes", "visible": "yes" }, "geometry": { "type": "Point", "coordinates": [ 11.0188, 35.0762 ] } },
{ "type": "Feature", "properties": { "name": "Amphitheatre of Bararus", "city": "El Hencha", "country": "Tunisia", "located": "yes", "visible": "yes" }, "geometry": { "type": "Point", "coordinates": [ 10.791201, 35.211842 ] } },
{ "type": "Feature", "properties": { "name": "Amphitheatre of Bulla regia", "city": "Jendouba", "country": "Tunisia", "located": "yes", "visible": "yes" }, "geometry": { "type": "Point", "coordinates": [ 8.757769, 36.560414 ] } },
{ "type": "Feature", "properties": { "name": "Amphitheatre of Carthago", "city": "Carthage", "country": "Tunisia", "located": "yes", "visible": "yes" }, "geometry": { "type": "Point", "coordinates": [ 10.314921, 36.856336 ] } },
{ "type": "Feature", "properties": { "name": "Amphitheatre of Colonia Julia Aurelia Commoda", "city": "Thuburbo Majus", "country": "Tunisa", "located": "yes", "visible": "yes" }, "geometry": { "type": "Point", "coordinates": [ 9.90575, 36.398212 ] } },
{ "type": "Feature", "properties": { "name": "Amphitheatre of Hadrumetum", "city": "Susa", "country": "Tunisia", "located": "no", "visible": "no" }, "geometry": { "type": "Point", "coordinates": [ 10.64, 35.826 ] } },
{ "type": "Feature", "properties": { "name": "Amphitheatre of Jebel Moraba", "city": "Jebel Moraba", "country": "Tunisia", "located": "yes", "visible": "yes" }, "geometry": { "type": "Point", "coordinates": [ 9.860814, 36.597628 ] } },
{ "type": "Feature", "properties": { "name": "Amphitheatre of Leptis Minor", "city": "Lemta", "country": "Tunisia", "located": "yes", "visible": "yes" }, "geometry": { "type": "Point", "coordinates": [ 10.866518, 35.678313 ] } },
{ "type": "Feature", "properties": { "name": "Amphitheatre of Mactaris", "city": "Maktar", "country": "Tunisia", "located": "yes", "visible": "yes" }, "geometry": { "type": "Point", "coordinates": [ 9.206366, 35.855562 ] } },
{ "type": "Feature", "properties": { "name": "Amphitheatre of Municiium Aurelium Commodum", "city": "Henchir Bou Cha", "country": "Tunisia", "located": "yes", "visible": "yes" }, "geometry": { "type": "Point", "coordinates": [ 9.88918, 36.5277 ] } },
{ "type": "Feature", "properties": { "name": "Amphitheatre of Pupput", "city": "Hammamet", "country": "Tunisia", "located": "no", "visible": "no" }, "geometry": { "type": "Point", "coordinates": [ 10.616667, 36.4 ] } },
{ "type": "Feature", "properties": { "name": "Amphitheatre of Seressi", "city": "Oum El Abouab", "country": "Tunisia", "located": "yes", "visible": "yes" }, "geometry": { "type": "Point", "coordinates": [ 9.775575, 36.163516 ] } },
{ "type": "Feature", "properties": { "name": "Amphitheatre of Sicca Veneria", "city": "El Kef", "country": "Tunisia", "located": "no", "visible": "no" }, "geometry": { "type": "Point", "coordinates": [ 8.7, 36.186 ] } },
{ "type": "Feature", "properties": { "name": "Amphitheatre of Simitthus", "city": "Chemtou", "country": "Tunisia", "located": "yes", "visible": "yes" }, "geometry": { "type": "Point", "coordinates": [ 8.580217, 36.490397 ] } },
{ "type": "Feature", "properties": { "name": "Amphitheatre of Sufetula", "city": "Sbeitla", "country": "Tunisia", "located": "yes", "visible": "yes" }, "geometry": { "type": "Point", "coordinates": [ 9.11454, 35.243627 ] } },
{ "type": "Feature", "properties": { "name": "Amphitheatre of Thaenae", "city": "Sfax", "country": "Tunisia", "located": "yes", "visible": "yes" }, "geometry": { "type": "Point", "coordinates": [ 10.67308, 34.655531 ] } },
{ "type": "Feature", "properties": { "name": "Amphitheatre of Thapsus", "city": "Bekalta", "country": "Tunisia", "located": "yes", "visible": "yes" }, "geometry": { "type": "Point", "coordinates": [ 11.042257, 35.619145 ] } },
{ "type": "Feature", "properties": { "name": "Amphitheatre of Thibaris", "city": "Henshir Hamamet", "country": "Tunisia", "located": "no", "visible": "no" }, "geometry": { "type": "Point", "coordinates": [ 9.081555, 36.50468 ] } },
{ "type": "Feature", "properties": { "name": "Amphitheatre of Thignica", "city": "Ain Tounga", "country": "Tunisia", "located": "yes", "visible": "yes" }, "geometry": { "type": "Point", "coordinates": [ 9.361791, 36.527815 ] } },
{ "type": "Feature", "properties": { "name": "Amphitheatre of Thimisua", "city": "Argoub", "country": "Tunisia", "located": "yes", "visible": "yes" }, "geometry": { "type": "Point", "coordinates": [ 9.319186, 36.31072 ] } },
{ "type": "Feature", "properties": { "name": "Large Amphitheatres of Thysdrus", "city": "El Djem", "country": "Tunisia", "located": "yes", "visible": "yes" }, "geometry": { "type": "Point", "coordinates": [ 10.7069, 35.2964 ] } },
{ "type": "Feature", "properties": { "name": "Small amphitheatre of Thysdrus", "city": "El Djem", "country": "Tunisia", "located": "yes", "visible": "yes" }, "geometry": { "type": "Point", "coordinates": [ 10.7079, 35.2901 ] } },
{ "type": "Feature", "properties": { "name": "Amphitheatre of Anazarbus", "city": "Adana", "country": "Turkey", "located": "yes", "visible": "yes" }, "geometry": { "type": "Point", "coordinates": [ 35.894983, 37.244079 ] } },
{ "type": "Feature", "properties": { "name": "Amphitheatre of Pergamon", "city": "Bergama", "country": "Turkey", "located": "yes", "visible": "yes" }, "geometry": { "type": "Point", "coordinates": [ 27.174432, 39.125747 ] } },
{ "type": "Feature", "properties": { "name": "Aquincum Civili Amphitheatre", "city": "Budapest", "country": "Hungary", "located": "yes", "visible": "yes" }, "geometry": { "type": "Point", "coordinates": [ 19.047985, 47.567577 ] } },
{ "type": "Feature", "properties": { "name": "Aquincum Military Amphitheatre", "city": "Budapest", "country": "Hungary", "located": "yes", "visible": "yes" }, "geometry": { "type": "Point", "coordinates": [ 19.039066, 47.532947 ] } },
{ "type": "Feature", "properties": { "name": "Amphitheatre of Arelate", "city": "Arles", "country": "France", "located": "yes", "visible": "yes" }, "geometry": { "type": "Point", "coordinates": [ 4.63126352794895, 43.67757774134309 ] } },
{ "type": "Feature", "properties": { "name": "Amphitheatre of Segobriga", "city": "Saelices", "country": "Spain", "located": "yes", "visible": "yes" }, "geometry": { "type": "Point", "coordinates": [ -2.81385650991538, 39.88601637099111 ] } },
{ "type": "Feature", "properties": { "name": "Amphitheatre of Augusta Emerita", "city": "Merida", "country": "Spain", "located": "yes", "visible": "yes" }, "geometry": { "type": "Point", "coordinates": [ -6.33804610839414, 38.91622662323664 ] } },
{ "type": "Feature", "properties": { "name": "Amphitheatre of Colonia Aelia Augusta Italica", "city": "Italica", "country": "Spain", "located": "yes", "visible": "yes" }, "geometry": { "type": "Point", "coordinates": [ -6.04682584182556, 37.44388953332123 ] } },
{ "type": "Feature", "properties": { "name": "Amphitheatre of Carmo", "city": "Carmon", "country": "Spain", "located": "yes", "visible": "yes" }, "geometry": { "type": "Point", "coordinates": [ -5.65063029740663, 37.46962768710538 ] } },
{ "type": "Feature", "properties": { "name": "Amphitheatre of Fidenae", "city": "Rome", "country": "Italy", "located": "no", "visible": "no" }, "geometry": { "type": "Point", "coordinates": [ 12.51297738117878, 41.97891022377502 ] } },
{ "type": "Feature", "properties": { "name": "Ludus Magnus", "city": "Rome", "country": "Italy", "located": "yes", "visible": "yes" }, "geometry": { "type": "Point", "coordinates": [ 12.49496218100814, 41.8900818597636 ] } },
{ "type": "Feature", "properties": { "name": "Amphitheatre of Bononia", "city": "Bologna", "country": "Italy", "located": "yes", "visible": "no" }, "geometry": { "type": "Point", "coordinates": [ 11.3509700573244, 44.49435384534492 ] } },
{ "type": "Feature", "properties": { "name": "Amphitheatre of Camulodunum", "city": "Colchester", "country": "England", "located": "yes", "visible": "yes" }, "geometry": { "type": "Point", "coordinates": [ 0.90191705075289, 51.88239147273988 ] } }
]
}