{
"type": "FeatureCollection",
"name": "Theatres_3",
"crs": { "type": "name", "properties": { "name": "urn:ogc:def:crs:OGC:1.3:CRS84" } },
"features": [
{ "type": "Feature", "properties": { "name": "Theatre of Buthrotum", "city": "Buthrotum", "country": "Albania", "located": "yes", "visible": "yes" }, "geometry": { "type": "Point", "coordinates": [ 20.02054, 39.74559 ] } },
{ "type": "Feature", "properties": { "name": "Theatre of Phoenice", "city": "Finiq", "country": "Albania", "located": "yes", "visible": "yes" }, "geometry": { "type": "Point", "coordinates": [ 20.05646, 39.91355 ] } },
{ "type": "Feature", "properties": { "name": "Theatre of Calama", "city": "Guelma", "country": "Algeria", "located": "yes", "visible": "yes" }, "geometry": { "type": "Point", "coordinates": [ 7.43019, 36.46722 ] } },
{ "type": "Feature", "properties": { "name": "Theatre of Cuicul", "city": "Djemila", "country": "Algeria", "located": "yes", "visible": "yes" }, "geometry": { "type": "Point", "coordinates": [ 5.73767, 36.32066 ] } },
{ "type": "Feature", "properties": { "name": "Theatre of Rusicadae", "city": "Skikda", "country": "Algeria", "located": "yes", "visible": "yes" }, "geometry": { "type": "Point", "coordinates": [ 6.90526, 36.87961 ] } },
{ "type": "Feature", "properties": { "name": "Theatre of Thamugadi", "city": "Timgad", "country": "Algeria", "located": "yes", "visible": "yes" }, "geometry": { "type": "Point", "coordinates": [ 7.901438, 36.077883 ] } },
{ "type": "Feature", "properties": { "name": "Theatre of Trimontium", "city": "Plodviv", "country": "Bulgaria", "located": "yes", "visible": "yes" }, "geometry": { "type": "Point", "coordinates": [ 24.751069, 42.147239 ] } },
{ "type": "Feature", "properties": { "name": "Theatre of Alba Augusta Helviorum", "city": "Alba-la-Romaine", "country": "France", "located": "yes", "visible": "yes" }, "geometry": { "type": "Point", "coordinates": [ 4.60182, 44.55989 ] } },
{ "type": "Feature", "properties": { "name": "Theatre of Aquae Sextiae", "city": "Aix-en-Provence", "country": "France", "located": "yes", "visible": "yes" }, "geometry": { "type": "Point", "coordinates": [ 5.43722, 43.53028 ] } },
{ "type": "Feature", "properties": { "name": "Theatre of Aurasio", "city": "Orange", "country": "France", "located": "yes", "visible": "yes" }, "geometry": { "type": "Point", "coordinates": [ 4.80886, 44.13587 ] } },
{ "type": "Feature", "properties": { "name": "Theatre of Arelate", "city": "Arles", "country": "France", "located": "yes", "visible": "yes" }, "geometry": { "type": "Point", "coordinates": [ 4.62972, 43.67639 ] } },
{ "type": "Feature", "properties": { "name": "Theatre of Argentomagus", "city": "Saint-Marcel", "country": "France", "located": "yes", "visible": "yes" }, "geometry": { "type": "Point", "coordinates": [ 1.50967, 46.59907 ] } },
{ "type": "Feature", "properties": { "name": "Theatre of Augustodunum", "city": "Autun", "country": "France", "located": "yes", "visible": "yes" }, "geometry": { "type": "Point", "coordinates": [ 4.309949, 46.952765 ] } },
{ "type": "Feature", "properties": { "name": "Theatre of Brantuspantium", "city": "Vendeuil-Caply", "country": "France", "located": "yes", "visible": "yes" }, "geometry": { "type": "Point", "coordinates": [ 2.30065, 49.6081 ] } },
{ "type": "Feature", "properties": { "name": "Theatre of Briga", "city": "Eu", "country": "France", "located": "yes", "visible": "yes" }, "geometry": { "type": "Point", "coordinates": [ 1.46518, 50.02167 ] } },
{ "type": "Feature", "properties": { "name": "Theatre of Epomanduodurum", "city": "Mandeure", "country": "France", "located": "yes", "visible": "yes" }, "geometry": { "type": "Point", "coordinates": [ 6.79622, 47.44901 ] } },
{ "type": "Feature", "properties": { "name": "Theatre of Forum Julii", "city": "FrÃ©jus", "country": "France", "located": "yes", "visible": "yes" }, "geometry": { "type": "Point", "coordinates": [ 6.738156, 43.436938 ] } },
{ "type": "Feature", "properties": { "name": "Theatre of Lugdunum", "city": "Lyon", "country": "France", "located": "yes", "visible": "yes" }, "geometry": { "type": "Point", "coordinates": [ 4.819722, 45.759722 ] } },
{ "type": "Feature", "properties": { "name": "Theatre of Juliobona", "city": "Lillebonne", "country": "France", "located": "yes", "visible": "yes" }, "geometry": { "type": "Point", "coordinates": [ 0.536753, 49.517675 ] } },
{ "type": "Feature", "properties": { "name": "Theatre of Vienna", "city": "Vienne", "country": "France", "located": "yes", "visible": "yes" }, "geometry": { "type": "Point", "coordinates": [ 4.878879, 45.524824 ] } },
{ "type": "Feature", "properties": { "name": "Theatre of Vasio Vocontiorum", "city": "Vaison-la-Romaine", "country": "France", "located": "yes", "visible": "yes" }, "geometry": { "type": "Point", "coordinates": [ 5.07541, 44.24389 ] } },
{ "type": "Feature", "properties": { "name": "Theatre of Magontiacum", "city": "Mainz", "country": "Germany", "located": "yes", "visible": "yes" }, "geometry": { "type": "Point", "coordinates": [ 8.277778, 49.993056 ] } },
{ "type": "Feature", "properties": { "name": "Theatre of Gadara", "city": "Umm Qais", "country": "Jordan", "located": "yes", "visible": "yes" }, "geometry": { "type": "Point", "coordinates": [ 35.67793, 32.65556 ] } },
{ "type": "Feature", "properties": { "name": "Southern Theatre of Gerasa", "city": "Jerash", "country": "Jordan", "located": "yes", "visible": "yes" }, "geometry": { "type": "Point", "coordinates": [ 35.8892, 32.27674 ] } },
{ "type": "Feature", "properties": { "name": "Northern Theatre of Gerasa", "city": "Jerash", "country": "Jordan", "located": "yes", "visible": "yes" }, "geometry": { "type": "Point", "coordinates": [ 35.89235, 32.28265 ] } },
{ "type": "Feature", "properties": { "name": "Theatre of Philadelphi", "city": "Amman", "country": "Jordan", "located": "yes", "visible": "yes" }, "geometry": { "type": "Point", "coordinates": [ 35.939306, 31.951692 ] } },
{ "type": "Feature", "properties": { "name": "Theatre of Alba Fucens", "city": "Massa d'Albe", "country": "Italy", "located": "yes", "visible": "yes" }, "geometry": { "type": "Point", "coordinates": [ 13.41281, 42.07968 ] } },
{ "type": "Feature", "properties": { "name": "Theatre of Amiternum", "city": "L'Aquila", "country": "Italy", "located": "yes", "visible": "yes" }, "geometry": { "type": "Point", "coordinates": [ 13.30992, 42.40386 ] } },
{ "type": "Feature", "properties": { "name": "Theatre of Antium", "city": "Anzio", "country": "Italy", "located": "yes", "visible": "yes" }, "geometry": { "type": "Point", "coordinates": [ 12.628653, 41.455161 ] } },
{ "type": "Feature", "properties": { "name": "Theatre of Asculum", "city": "Ascoli Piceno", "country": "Italy", "located": "yes", "visible": "yes" }, "geometry": { "type": "Point", "coordinates": [ 13.56867, 42.853711 ] } },
{ "type": "Feature", "properties": { "name": "Theatre of Augusta Bagiennorum", "city": "Bene Vagienna", "country": "Italy", "located": "yes", "visible": "yes" }, "geometry": { "type": "Point", "coordinates": [ 7.85493, 44.5593 ] } },
{ "type": "Feature", "properties": { "name": "Theatre of Augusta Praetoria", "city": "Aosta", "country": "Italy", "located": "yes", "visible": "yes" }, "geometry": { "type": "Point", "coordinates": [ 7.3223, 45.73841 ] } },
{ "type": "Feature", "properties": { "name": "Theatre of Augusta Taurinorum", "city": "Torino", "country": "Italy", "located": "yes", "visible": "yes" }, "geometry": { "type": "Point", "coordinates": [ 7.685514, 45.073972 ] } },
{ "type": "Feature", "properties": { "name": "Theatre of Beneventum", "city": "Benevento", "country": "Italy", "located": "yes", "visible": "yes" }, "geometry": { "type": "Point", "coordinates": [ 14.7719, 41.130686 ] } },
{ "type": "Feature", "properties": { "name": "Theatre of Bovianum vetus", "city": "Pietrabbondante", "country": "Italy", "located": "ues", "visible": "yes" }, "geometry": { "type": "Point", "coordinates": [ 14.38747, 41.73975 ] } },
{ "type": "Feature", "properties": { "name": "Theatre of Brixia", "city": "Brescia", "country": "Italy", "located": "yes", "visible": "yes" }, "geometry": { "type": "Point", "coordinates": [ 10.225702, 45.539949 ] } },
{ "type": "Feature", "properties": { "name": "Theatre of Cales", "city": "Calvi Risorta", "country": "Italy", "located": "yes", "visible": "yes" }, "geometry": { "type": "Point", "coordinates": [ 14.13239, 41.19996 ] } },
{ "type": "Feature", "properties": { "name": "Theatre of Carsulae", "city": "Terni", "country": "Italy", "located": "yes", "visible": "yes" }, "geometry": { "type": "Point", "coordinates": [ 12.56014, 42.63932 ] } },
{ "type": "Feature", "properties": { "name": "Theatre of Casinum", "city": "Cassino", "country": "Italy", "located": "yes", "visible": "yes" }, "geometry": { "type": "Point", "coordinates": [ 13.82102, 41.48329 ] } },
{ "type": "Feature", "properties": { "name": "Theatre of Catana", "city": "Catania", "country": "Italy", "located": "yes", "visible": "yes" }, "geometry": { "type": "Point", "coordinates": [ 15.083583, 37.502889 ] } },
{ "type": "Feature", "properties": { "name": "Theatre of Civitas Camunnorum", "city": "Cividate Camuno", "country": "Italy", "located": "yes", "visible": "yes" }, "geometry": { "type": "Point", "coordinates": [ 10.280981, 45.943569 ] } },
{ "type": "Feature", "properties": { "name": "Theatre of Faesulae", "city": "Fiesole", "country": "Italy", "located": "yes", "visible": "yes" }, "geometry": { "type": "Point", "coordinates": [ 11.29373, 43.80782 ] } },
{ "type": "Feature", "properties": { "name": "Theatre of Falerio Picenus", "city": "Falerone", "country": "Italy", "located": "yes", "visible": "yes" }, "geometry": { "type": "Point", "coordinates": [ 13.50003, 43.10238 ] } },
{ "type": "Feature", "properties": { "name": "Theatre of Fanum Fortunae", "city": "Fano", "country": "Italy", "located": "no", "visible": "no" }, "geometry": { "type": "Point", "coordinates": [ 13.01521, 43.84528 ] } },
{ "type": "Feature", "properties": { "name": "Theatre of Ferentium", "city": "Ferentino", "country": "Italy", "located": "yes", "visible": "yes" }, "geometry": { "type": "Point", "coordinates": [ 13.25382, 41.69075 ] } },
{ "type": "Feature", "properties": { "name": "Theatre of Ferentium", "city": "Viterbo", "country": "Italy", "located": "yes", "visible": "yes" }, "geometry": { "type": "Point", "coordinates": [ 12.1325, 42.488611 ] } },
{ "type": "Feature", "properties": { "name": "Theatre of Grumentum", "city": "Grumento Nova", "country": "Italy", "located": "yes", "visible": "yes" }, "geometry": { "type": "Point", "coordinates": [ 15.90539, 40.28332 ] } },
{ "type": "Feature", "properties": { "name": "Theatre of Helvica Recina", "city": "Macerata", "country": "Italy", "located": "yes", "visible": "yes" }, "geometry": { "type": "Point", "coordinates": [ 13.424089, 43.327956 ] } },
{ "type": "Feature", "properties": { "name": "Theatre of Ikuvium", "city": "Gubbio", "country": "Italy", "located": "yes", "visible": "yes" }, "geometry": { "type": "Point", "coordinates": [ 12.57267, 43.35189 ] } },
{ "type": "Feature", "properties": { "name": "Theatre of Interamnia Praetutiorum", "city": "Teramo", "country": "Italy", "located": "yes", "visible": "yes" }, "geometry": { "type": "Point", "coordinates": [ 13.704075, 42.657897 ] } },
{ "type": "Feature", "properties": { "name": "Theatre of Juvanum", "city": "Montenerodomo", "country": "Italy", "located": "yes", "visible": "yes" }, "geometry": { "type": "Point", "coordinates": [ 14.24997, 41.99722 ] } },
{ "type": "Feature", "properties": { "name": "Theatre of Libarna", "city": "Serravalle Scrivia", "country": "Italy", "located": "yes", "visible": "yes" }, "geometry": { "type": "Point", "coordinates": [ 8.86492, 44.7068 ] } },
{ "type": "Feature", "properties": { "name": "Theatre of Liternum", "city": "Giugliano in Campania", "country": "Italy", "located": "yes", "visible": "yes" }, "geometry": { "type": "Point", "coordinates": [ 14.03011, 40.92137 ] } },
{ "type": "Feature", "properties": { "name": "Theatre of Locri Epizefiri", "city": "Locri", "country": "Italy", "located": "yes", "visible": "yes" }, "geometry": { "type": "Point", "coordinates": [ 16.228636, 38.216181 ] } },
{ "type": "Feature", "properties": { "name": "Theatre of Luna", "city": "Luni", "country": "Italy", "located": "yes", "visible": "yes" }, "geometry": { "type": "Point", "coordinates": [ 10.02022, 44.06496 ] } },
{ "type": "Feature", "properties": { "name": "Theatre of Lupiae", "city": "Lecce", "country": "Italy", "located": "yes", "visible": "yes" }, "geometry": { "type": "Point", "coordinates": [ 18.170539, 40.351391 ] } },
{ "type": "Feature", "properties": { "name": "Theatre of Metapontum", "city": "Metaponto", "country": "Italy", "located": "yes", "visible": "yes" }, "geometry": { "type": "Point", "coordinates": [ 16.82618, 40.38322 ] } },
{ "type": "Feature", "properties": { "name": "Theatre of Minturnae", "city": "Minturno", "country": "Italy", "located": "yes", "visible": "yes" }, "geometry": { "type": "Point", "coordinates": [ 13.76848, 41.24245 ] } },
{ "type": "Feature", "properties": { "name": "Theatre of Nuceria Alfaterna", "city": "Nocera Superiore", "country": "Italy", "located": "yes", "visible": "yes" }, "geometry": { "type": "Point", "coordinates": [ 14.66274, 40.73784 ] } },
{ "type": "Feature", "properties": { "name": "Theatre of Ocriculum", "city": "Otricoli", "country": "Italy", "located": "yes", "visible": "yes" }, "geometry": { "type": "Point", "coordinates": [ 12.46518, 42.41515 ] } },
{ "type": "Feature", "properties": { "name": "Theatre of Ostia", "city": "Ostia", "country": "Italy", "located": "yes", "visible": "yes" }, "geometry": { "type": "Point", "coordinates": [ 12.29137, 41.75591 ] } },
{ "type": "Feature", "properties": { "name": "Theatre of Ostra", "city": "Ostra Vetere", "country": "Italy", "located": "yes", "visible": "yes" }, "geometry": { "type": "Point", "coordinates": [ 13.086111, 43.584722 ] } },
{ "type": "Feature", "properties": { "name": "Theatre of Pausilypon", "city": "Napoli", "country": "Italy", "located": "yes", "visible": "yes" }, "geometry": { "type": "Point", "coordinates": [ 14.18476, 40.7946 ] } },
{ "type": "Feature", "properties": { "name": "Theatre of Peltuinum", "city": "Prata d'Ansidonia", "country": "Italy", "located": "yes", "visible": "yes" }, "geometry": { "type": "Point", "coordinates": [ 13.62404, 42.28288 ] } },
{ "type": "Feature", "properties": { "name": "Large Theatre of Pompeii", "city": "Pompei", "country": "Italy", "located": "yes", "visible": "yes" }, "geometry": { "type": "Point", "coordinates": [ 14.488416, 40.748795 ] } },
{ "type": "Feature", "properties": { "name": "Small Theatreb of Pompeii", "city": "Pompei", "country": "Italy", "located": "yes", "visible": "yes" }, "geometry": { "type": "Point", "coordinates": [ 14.488987, 40.748854 ] } },
{ "type": "Feature", "properties": { "name": "Theatre of Saepinum", "city": "Sepino", "country": "Italy", "located": "yes", "visible": "yes" }, "geometry": { "type": "Point", "coordinates": [ 14.61746, 41.43443 ] } },
{ "type": "Feature", "properties": { "name": "Theatre of Spoletium", "city": "Spoleto", "country": "Italy", "located": "yes", "visible": "yes" }, "geometry": { "type": "Point", "coordinates": [ 12.73508, 42.7333 ] } },
{ "type": "Feature", "properties": { "name": "Theatre of Suasa", "city": "Castelleone di Suasa", "country": "Italy", "located": "yes", "visible": "yes" }, "geometry": { "type": "Point", "coordinates": [ 12.98599, 43.62495 ] } },
{ "type": "Feature", "properties": { "name": "Theatre of Suessa", "city": "Sessa Aurunca", "country": "Italy", "located": "yes", "visible": "yes" }, "geometry": { "type": "Point", "coordinates": [ 13.93059, 41.23446 ] } },
{ "type": "Feature", "properties": { "name": "Theatre of Teanum Sidicinum", "city": "Teano", "country": "Italy", "located": "yes", "visible": "yes" }, "geometry": { "type": "Point", "coordinates": [ 14.07267, 41.24813 ] } },
{ "type": "Feature", "properties": { "name": "Theatre of Tergeste", "city": "Trieste", "country": "Italy", "located": "yes", "visible": "yes" }, "geometry": { "type": "Point", "coordinates": [ 13.771667, 45.649167 ] } },
{ "type": "Feature", "properties": { "name": "Theatre of Tusculum", "city": "Monte Porzio Catone", "country": "Italy", "located": "yes", "visible": "yes" }, "geometry": { "type": "Point", "coordinates": [ 12.71047, 41.79833 ] } },
{ "type": "Feature", "properties": { "name": "Theatre of Urbs Salvia", "city": "Urbisaglia", "country": "Italy", "located": "yes", "visible": "yes" }, "geometry": { "type": "Point", "coordinates": [ 13.380658, 43.198878 ] } },
{ "type": "Feature", "properties": { "name": "Theatre of Urvinum Mataurense", "city": "Urbino", "country": "Italy", "located": "yes", "visible": "yes" }, "geometry": { "type": "Point", "coordinates": [ 12.63754, 43.72434 ] } },
{ "type": "Feature", "properties": { "name": "Theatre of Venafrum", "city": "Venafro", "country": "Italy", "located": "yes", "visible": "yes" }, "geometry": { "type": "Point", "coordinates": [ 14.04002, 41.4856 ] } },
{ "type": "Feature", "properties": { "name": "Theatre of Verona", "city": "Verona", "country": "Italy", "located": "yes", "visible": "yes" }, "geometry": { "type": "Point", "coordinates": [ 11.001639, 45.447417 ] } },
{ "type": "Feature", "properties": { "name": "Theatre of Vicetia", "city": "Vicenza", "country": "Italy", "located": "yes", "visible": "yes" }, "geometry": { "type": "Point", "coordinates": [ 11.547949, 45.543888 ] } },
{ "type": "Feature", "properties": { "name": "Theatre of Volterrae", "city": "Volterra", "country": "Italy", "located": "yes", "visible": "yes" }, "geometry": { "type": "Point", "coordinates": [ 10.86, 43.403611 ] } },
{ "type": "Feature", "properties": { "name": "Theatre of Cyrene", "city": "Shahhat", "country": "Libya", "located": "yes", "visible": "yes" }, "geometry": { "type": "Point", "coordinates": [ 21.85776, 32.81849 ] } },
{ "type": "Feature", "properties": { "name": "Theatre of Leptis Magna", "city": "Lebda", "country": "Libya", "located": "yes", "visible": "yes" }, "geometry": { "type": "Point", "coordinates": [ 14.290333, 32.638111 ] } },
{ "type": "Feature", "properties": { "name": "Theatre of Sabratha", "city": "Sabrata", "country": "Libya", "located": "yes", "visible": "yes" }, "geometry": { "type": "Point", "coordinates": [ 12.485333, 32.805167 ] } },
{ "type": "Feature", "properties": { "name": "Theatre of Verulamium", "city": "St. Albans", "country": "England", "located": "yes", "visible": "yes" }, "geometry": { "type": "Point", "coordinates": [ 0.35855, 51.75382 ] } },
{ "type": "Feature", "properties": { "name": "Theatre of Eraclea Lincestide", "city": "Bitola", "country": "Macedonia", "located": "yes", "visible": "yes" }, "geometry": { "type": "Point", "coordinates": [ 21.34221, 41.01143 ] } },
{ "type": "Feature", "properties": { "name": "Theatre of Lychnidus", "city": "Ocrida", "country": "Macedonia", "located": "yes", "visible": "yes" }, "geometry": { "type": "Point", "coordinates": [ 20.793894, 41.114711 ] } },
{ "type": "Feature", "properties": { "name": "Theatre of Stobi", "city": "Gradsko", "country": "Macedonia", "located": "yes", "visible": "yes" }, "geometry": { "type": "Point", "coordinates": [ 21.97456, 41.55153 ] } },
{ "type": "Feature", "properties": { "name": "Theatre of Acipino", "city": "Ronda", "country": "Spain", "located": "yes", "visible": "yes" }, "geometry": { "type": "Point", "coordinates": [ 5.24049, 36.83185 ] } },
{ "type": "Feature", "properties": { "name": "Theatre of Baelo Claudia", "city": "Baelo Claudia", "country": "Spain", "located": "yes", "visible": "yes" }, "geometry": { "type": "Point", "coordinates": [ 5.77557, 36.09093 ] } },
{ "type": "Feature", "properties": { "name": "Theatre of Caesarea Augusta", "city": "Saragozza", "country": "Sapin", "located": "yes", "visible": "yes" }, "geometry": { "type": "Point", "coordinates": [ 0.877764, 41.652176 ] } },
{ "type": "Feature", "properties": { "name": "Theatre of Gades", "city": "Cadiz", "country": "Spain", "located": "yes", "visible": "yes" }, "geometry": { "type": "Point", "coordinates": [ 6.2937, 36.5283 ] } },
{ "type": "Feature", "properties": { "name": "Theatre of Malaca", "city": "Malaga", "country": "Spain", "located": "yes", "visible": "yes" }, "geometry": { "type": "Point", "coordinates": [ 4.416861, 36.721194 ] } },
{ "type": "Feature", "properties": { "name": "Theatre of Tarraco", "city": "Tarragona", "country": "Spain", "located": "yes", "visible": "yes" }, "geometry": { "type": "Point", "coordinates": [ 1.249175, 41.112903 ] } },
{ "type": "Feature", "properties": { "name": "Theatre of Augusra Raurica", "city": "Augusta", "country": "Switzerland", "located": "yes", "visible": "yes" }, "geometry": { "type": "Point", "coordinates": [ 7.721389, 47.533056 ] } },
{ "type": "Feature", "properties": { "name": "Theatre of Aventicum", "city": "Avenches", "country": "Switzerland", "located": "yes", "visible": "yes" }, "geometry": { "type": "Point", "coordinates": [ 7.04878, 46.88026 ] } },
{ "type": "Feature", "properties": { "name": "Theatre of Lencis", "city": "Lenzburg", "country": "Switzerland", "located": "yes", "visible": "yes" }, "geometry": { "type": "Point", "coordinates": [ 8.19089, 47.39489 ] } },
{ "type": "Feature", "properties": { "name": "Theatre of Altiburo", "city": "Dahmani", "country": "Tunisia", "located": "yes", "visible": "yes" }, "geometry": { "type": "Point", "coordinates": [ 8.786373, 35.872653 ] } },
{ "type": "Feature", "properties": { "name": "Theatre of Bulla regia", "city": "Hammam Darraji", "country": "Tunisia", "located": "yes", "visible": "yes" }, "geometry": { "type": "Point", "coordinates": [ 8.757057, 36.558872 ] } },
{ "type": "Feature", "properties": { "name": "Theatre of Carthago", "city": "Tunisi", "country": "Tunisia", "located": "yes", "visible": "yes" }, "geometry": { "type": "Point", "coordinates": [ 10.329434, 36.857751 ] } },
{ "type": "Feature", "properties": { "name": "Theatre of Simitthus", "city": "Chemtou", "country": "Tunisia", "located": "yes", "visible": "yes" }, "geometry": { "type": "Point", "coordinates": [ 8.571777, 36.491465 ] } },
{ "type": "Feature", "properties": { "name": "Theatre of Thugga", "city": "Dougga", "country": "Tunisia", "located": "yes", "visible": "yes" }, "geometry": { "type": "Point", "coordinates": [ 9.22035, 36.42379 ] } },
{ "type": "Feature", "properties": { "name": "Theatre of Thubursicum Numidarum", "city": "Khemissa", "country": "Algeria", "located": "yes", "visible": "yes" }, "geometry": { "type": "Point", "coordinates": [ 7.65593634440873, 36.19369579883972 ] } },
{ "type": "Feature", "properties": { "name": "Theatre of Segobriga", "city": "Saelices", "country": "Spain", "located": "yes", "visible": "yes" }, "geometry": { "type": "Point", "coordinates": [ -2.81240542804811, 39.88612491443956 ] } },
{ "type": "Feature", "properties": { "name": "Theatre of Augusta Emerita", "city": "Merida", "country": "Spain", "located": "yes", "visible": "yes" }, "geometry": { "type": "Point", "coordinates": [ -6.33863931796252, 38.91531060665308 ] } }
]
}